<kml xmlns="http://www.opengis.net/kml/2.2" xmlns:gx="http://www.google.com/kml/ext/2.2">
  <Document>
    <!-- Begin Style Definitions -->
    <Style id="point1">
      <IconStyle>
        <Icon>kml_ext_files/kml_symbol_dot_0.png</Icon>
      </IconStyle>
    </Style>
    <Folder>
      <name>Point Features</name>
      <description>Point Features</description>
      <Placemark>
        <description>Unclassified Point Feature</description>
        <name>Ahvaz</name>
        <styleUrl>#point1</styleUrl>
        <Point>
          <coordinates>48.6841666667,31.3188888889,0</coordinates>
        </Point>
        <matchUri>syriaca.org/place/96</matchUri>
      </Placemark>
      <Placemark>
        <description>Unclassified Point Feature</description>
        <name>Alqosh</name>
        <styleUrl>#point1</styleUrl>
        <Point>
          <coordinates>43.0975628000,36.7321002000,0</coordinates>
        </Point>
        <matchUri>syriaca.org/place/19</matchUri>
      </Placemark>
      <Placemark>
        <description>Unclassified Point Feature</description>
        <name>Amedia</name>
        <styleUrl>#point1</styleUrl>
        <Point>
          <coordinates>43.4876880000,37.0921370000,0</coordinates>
        </Point>
        <matchUri>syriaca.org/place/20</matchUri>
      </Placemark>
      <Placemark>
        <description>Unclassified Point Feature</description>
        <name>Ankawa</name>
        <styleUrl>#point1</styleUrl>
        <Point>
          <coordinates>43.9882386000,36.2334823000,0</coordinates>
        </Point>
        <matchUri>syriaca.org/place/261</matchUri>
      </Placemark>
      <Placemark>
        <description>Unclassified Point Feature</description>
        <name>Aradhin</name>
        <styleUrl>#point1</styleUrl>
        <Point>
          <coordinates>43.3175000000,37.1097222000,0</coordinates>
        </Point>
        <matchUri>syriaca.org/place/256</matchUri>
      </Placemark>
      <Placemark>
        <description>Unclassified Point Feature</description>
        <name>Bartelle</name>
        <styleUrl>#point1</styleUrl>
        <Point>
          <coordinates>43.3769417000,36.3519096000,0</coordinates>
        </Point>
        <matchUri>syriaca.org/place/260</matchUri>
      </Placemark>
      <Placemark>
        <description>Unclassified Point Feature</description>
        <name>Baskale</name>
        <styleUrl>#point1</styleUrl>
        <Point>
          <coordinates>44.0170133000,38.0471617000,0</coordinates>
        </Point>
        <matchUri>syriaca.org/place/4449</matchUri>
      </Placemark>
      <Placemark>
        <description>Unclassified Point Feature</description>
        <name>Bax`a</name>
        <styleUrl>#point1</styleUrl>
        <Point>
          <coordinates>36.5644000000,33.8850000000,0</coordinates>
        </Point>
        <matchUri>syriaca.org/place/4112</matchUri>
      </Placemark>
      <Placemark>
        <description>Unclassified Point Feature</description>
        <name>Betanure</name>
        <styleUrl>#point1</styleUrl>
        <Point>
          <coordinates>43.4699821000,37.2007830000,0</coordinates>
        </Point>
        <matchUri>syriaca.org/place/4451</matchUri>
      </Placemark>
      <Placemark>
        <description>Unclassified Point Feature</description>
        <name>Bedyal</name>
        <styleUrl>#point1</styleUrl>
        <Point>
          <coordinates>44.1418326000,36.9319784000,0</coordinates>
        </Point>
        <matchUri>syriaca.org/place/4450</matchUri>
      </Placemark>
      <Placemark>
        <description>Unclassified Point Feature</description>
        <name>Bijar</name>
        <styleUrl>#point1</styleUrl>
        <Point>
          <coordinates>47.6069462000,35.8730965000,0</coordinates>
        </Point>
        <matchUri>syriaca.org/place/4069</matchUri>
      </Placemark>
      <Placemark>
        <description>Unclassified Point Feature</description>
        <name>Bokan</name>
        <styleUrl>#point1</styleUrl>
        <Point>
          <coordinates>46.2076861000,36.5190954000,0</coordinates>
        </Point>
        <matchUri>syriaca.org/place/4185</matchUri>
      </Placemark>
      <Placemark>
        <description>Unclassified Point Feature</description>
        <name>Challa</name>
        <styleUrl>#point1</styleUrl>
        <Point>
          <coordinates>43.6136111111,37.2480555556,0</coordinates>
        </Point>
        <matchUri>syriaca.org/place/4453</matchUri>
      </Placemark>
      <Placemark>
        <description>Unclassified Point Feature</description>
        <name>Diyana</name>
        <styleUrl>#point1</styleUrl>
        <Point>
          <coordinates>44.5561481000,36.6615341000,0</coordinates>
        </Point>
        <matchUri>syriaca.org/place/1169</matchUri>
      </Placemark>
      <Placemark>
        <description>Unclassified Point Feature</description>
        <name>Dobe</name>
        <styleUrl>#point1</styleUrl>
        <Point>
          <coordinates>44.0062255000,36.5988323000,0</coordinates>
        </Point>
        <matchUri>syriaca.org/place/4454</matchUri>
      </Placemark>
      <Placemark>
        <description>Unclassified Point Feature</description>
        <name>Gawar (Yuksekova)</name>
        <styleUrl>#point1</styleUrl>
        <Point>
          <coordinates>44.2879057000,37.5683454000,0</coordinates>
        </Point>
        <matchUri>syriaca.org/place/815</matchUri>
      </Placemark>
      <Placemark>
        <description>Unclassified Point Feature</description>
        <name>Gawilan</name>
        <styleUrl>#point1</styleUrl>
        <Point>
          <coordinates>44.9949789000,37.9563971000,0</coordinates>
        </Point>
        <matchUri>syriaca.org/place/247</matchUri>
      </Placemark>
      <Placemark>
        <description>Unclassified Point Feature</description>
        <name>Halabja</name>
        <styleUrl>#point1</styleUrl>
        <Point>
          <coordinates>45.9861111111,35.1777777778,0</coordinates>
        </Point>
        <matchUri>syriaca.org/place/4188</matchUri>
      </Placemark>
      <Placemark>
        <description>Unclassified Point Feature</description>
        <name>Hertevin</name>
        <styleUrl>#point1</styleUrl>
        <Point>
          <coordinates>42.3482770000,37.9241891000,0</coordinates>
        </Point>
        <matchUri>syriaca.org/place/4456</matchUri>
      </Placemark>
      <Placemark>
        <description>Unclassified Point Feature</description>
        <name>Jubb`adin</name>
        <styleUrl>#point1</styleUrl>
        <Point>
          <coordinates>36.5118009000,33.8227570000,0</coordinates>
        </Point>
        <matchUri>syriaca.org/place/4115</matchUri>
      </Placemark>
      <Placemark>
        <description>Unclassified Point Feature</description>
        <name>Karemlesh</name>
        <styleUrl>#point1</styleUrl>
        <Point>
          <coordinates>43.4149003000,36.3059869000,0</coordinates>
        </Point>
        <matchUri>syriaca.org/place/110</matchUri>
      </Placemark>
      <Placemark>
        <description>Unclassified Point Feature</description>
        <name>Kerend</name>
        <styleUrl>#point1</styleUrl>
        <Point>
          <coordinates>46.2442124000,34.2833585000,0</coordinates>
        </Point>
        <matchUri>syriaca.org/place/4192</matchUri>
      </Placemark>
      <Placemark>
        <description>Unclassified Point Feature</description>
        <name>Khanaqin</name>
        <styleUrl>#point1</styleUrl>
        <Point>
          <coordinates>45.3817749000,34.3439499000,0</coordinates>
        </Point>
        <matchUri>syriaca.org/place/4078</matchUri>
      </Placemark>
      <Placemark>
        <description>Unclassified Point Feature</description>
        <name>Khorramshahr</name>
        <styleUrl>#point1</styleUrl>
        <Point>
          <coordinates>48.1841666667,30.4405555556,0</coordinates>
        </Point>
        <matchUri>syriaca.org/place/4065</matchUri>
      </Placemark>
      <Placemark>
        <description>Unclassified Point Feature</description>
        <name>Koy Sanjak</name>
        <styleUrl>#point1</styleUrl>
        <Point>
          <coordinates>44.6217656000,36.0838063000,0</coordinates>
        </Point>
        <matchUri>syriaca.org/place/4459</matchUri>
      </Placemark>
      <Placemark>
        <description>Unclassified Point Feature</description>
        <name>Mardin</name>
        <styleUrl>#point1</styleUrl>
        <Point>
          <coordinates>40.7328039000,37.3135239000,0</coordinates>
        </Point>
        <matchUri>syriaca.org/place/130</matchUri>
      </Placemark>
      <Placemark>
        <description>Unclassified Point Feature</description>
        <name>Mawana</name>
        <styleUrl>#point1</styleUrl>
        <Point>
          <coordinates>44.7960448000,37.5749910000,0</coordinates>
        </Point>
        <matchUri>syriaca.org/place/1443</matchUri>
      </Placemark>
      <Placemark>
        <description>Unclassified Point Feature</description>
        <name>Mal`ula</name>
        <styleUrl>#point1</styleUrl>
        <Point>
          <coordinates>36.5457684000,33.8455225000,0</coordinates>
        </Point>
        <matchUri>syriaca.org/place/279</matchUri>
      </Placemark>
      <Placemark>
        <description>Unclassified Point Feature</description>
        <name>Midyat</name>
        <styleUrl>#point1</styleUrl>
        <Point>
          <coordinates>41.3771108000,37.4139729000,0</coordinates>
        </Point>
        <matchUri>syriaca.org/place/137</matchUri>
      </Placemark>
      <Placemark>
        <description>Unclassified Point Feature</description>
        <name>Mlahso</name>
        <styleUrl>#point1</styleUrl>
        <Point>
          <coordinates>40.6333330000,38.4666667000,0</coordinates>
        </Point>
        <matchUri>syriaca.org/place/4193</matchUri>
      </Placemark>
      <Placemark>
        <description>Unclassified Point Feature</description>
        <name>Nerwa</name>
        <styleUrl>#point1</styleUrl>
        <Point>
          <coordinates>44.1713476000,36.6867468000,0</coordinates>
        </Point>
        <matchUri>syriaca.org/place/4460</matchUri>
      </Placemark>
      <Placemark>
        <description>Unclassified Point Feature</description>
        <name>Qaraqosh</name>
        <styleUrl>#point1</styleUrl>
        <Point>
          <coordinates>43.3776015000,36.2705561000,0</coordinates>
        </Point>
        <matchUri>syriaca.org/place/262</matchUri>
      </Placemark>
      <Placemark>
        <description>Unclassified Point Feature</description>
        <name>Qasr-e Shirin</name>
        <styleUrl>#point1</styleUrl>
        <Point>
          <coordinates>45.5791372000,34.5222616000,0</coordinates>
        </Point>
        <matchUri>syriaca.org/place/4194</matchUri>
      </Placemark>
      <Placemark>
        <description>Unclassified Point Feature</description>
        <name>Ruwanduz</name>
        <styleUrl>#point1</styleUrl>
        <Point>
          <coordinates>44.5273894000,36.6142359000,0</coordinates>
        </Point>
        <matchUri>syriaca.org/place/4085</matchUri>
      </Placemark>
      <Placemark>
        <description>Unclassified Point Feature</description>
        <name>Sablagh (Mahabad)</name>
        <styleUrl>#point1</styleUrl>
        <Point>
          <coordinates>45.7208920000,36.7659623000,0</coordinates>
        </Point>
        <matchUri>syriaca.org/place/4086</matchUri>
        <matchUri>syriaca.org/place/4195</matchUri>
      </Placemark>
      <Placemark>
        <description>Unclassified Point Feature</description>
        <name>Sanandaj</name>
        <styleUrl>#point1</styleUrl>
        <Point>
          <coordinates>47.0012927000,35.3126389000,0</coordinates>
        </Point>
        <matchUri>syriaca.org/place/867</matchUri>
      </Placemark>
      <Placemark>
        <description>Unclassified Point Feature</description>
        <name>Saqqez</name>
        <styleUrl>#point1</styleUrl>
        <Point>
          <coordinates>46.2660831000,36.2377833000,0</coordinates>
        </Point>
        <matchUri>syriaca.org/place/4088</matchUri>
      </Placemark>
      <Placemark>
        <description>Unclassified Point Feature</description>
        <name>Shaqlawa</name>
        <styleUrl>#point1</styleUrl>
        <Point>
          <coordinates>44.3461472000,36.3925588000,0</coordinates>
        </Point>
        <matchUri>syriaca.org/place/4462</matchUri>
      </Placemark>
      <Placemark>
        <description>Unclassified Point Feature</description>
        <name>Solduz (Naqadeh)</name>
        <styleUrl>#point1</styleUrl>
        <Point>
          <coordinates>45.3879547000,36.9554476000,0</coordinates>
        </Point>
        <matchUri>syriaca.org/place/4198</matchUri>
      </Placemark>
      <Placemark>
        <description>Unclassified Point Feature</description>
        <name>Sulemaniyya</name>
        <styleUrl>#point1</styleUrl>
        <Point>
          <coordinates>45.4404402000,35.5583801000,0</coordinates>
        </Point>
        <matchUri>syriaca.org/place/4096</matchUri>
      </Placemark>
      <Placemark>
        <description>Unclassified Point Feature</description>
        <name>Telkepe</name>
        <styleUrl>#point1</styleUrl>
        <Point>
          <coordinates>43.1214666000,36.4905503000,0</coordinates>
        </Point>
        <matchUri>syriaca.org/place/197</matchUri>
      </Placemark>
      <Placemark>
        <description>Unclassified Point Feature</description>
        <name>Tikab</name>
        <styleUrl>#point1</styleUrl>
        <Point>
          <coordinates>47.1162200000,36.4038759000,0</coordinates>
        </Point>
        <matchUri>syriaca.org/place/4098</matchUri>
      </Placemark>
      <Placemark>
        <description>Unclassified Point Feature</description>
        <name>Urmi</name>
        <styleUrl>#point1</styleUrl>
        <Point>
          <coordinates>45.0757778000,37.5508890000,0</coordinates>
        </Point>
        <matchUri>syriaca.org/place/206</matchUri>
      </Placemark>
      <Placemark>
        <description>Unclassified Point Feature</description>
        <name>Zakho</name>
        <styleUrl>#point1</styleUrl>
        <Point>
          <coordinates>42.6829362000,37.1416916000,0</coordinates>
        </Point>
        <matchUri>syriaca.org/place/208</matchUri>
      </Placemark>
      <Placemark>
        <description>Unknown Point Feature</description>
        <name>Damascus</name>
        <styleUrl>#point1</styleUrl>
        <Point>
          <coordinates>36.3116169000,33.5100192000,0</coordinates>
        </Point>
        <matchUri>syriaca.org/place/66</matchUri>
      </Placemark>
      <Placemark>
        <description>Unknown Point Feature</description>
        <name>Antioch</name>
        <styleUrl>#point1</styleUrl>
        <Point>
          <coordinates>36.1640310000,36.2006507000,0</coordinates>
        </Point>
        <matchUri>syriaca.org/place/10</matchUri>
      </Placemark>
      <Placemark>
        <description>Unknown Point Feature</description>
        <name>Aleppo</name>
        <styleUrl>#point1</styleUrl>
        <Point>
          <coordinates>37.1629500000,36.1991615000,0</coordinates>
        </Point>
        <matchUri>syriaca.org/place/18</matchUri>
      </Placemark>
      <Placemark>
        <description>Unknown Point Feature</description>
        <name>Mopsuestia</name>
        <styleUrl>#point1</styleUrl>
        <Point>
          <coordinates>35.5833300000,36.9500000000,0</coordinates>
        </Point>
        <matchUri>syriaca.org/place/138</matchUri>
      </Placemark>
      <Placemark>
        <description>Unknown Point Feature</description>
        <name>Hierapolis/Mabbugh</name>
        <styleUrl>#point1</styleUrl>
        <Point>
          <coordinates>37.9561329000,36.5275017000,0</coordinates>
        </Point>
        <matchUri>syriaca.org/place/122</matchUri>
      </Placemark>
      <Placemark>
        <description>Unknown Point Feature</description>
        <name>Melitene</name>
        <styleUrl>#point1</styleUrl>
        <Point>
          <coordinates>38.3146300000,38.3476700000,0</coordinates>
        </Point>
        <matchUri>syriaca.org/place/136</matchUri>
      </Placemark>
      <Placemark>
        <description>Unknown Point Feature</description>
        <name>Maiperqat</name>
        <styleUrl>#point1</styleUrl>
        <Point>
          <coordinates>41.0032570000,38.1427855000,0</coordinates>
        </Point>
        <matchUri>syriaca.org/place/134</matchUri>
      </Placemark>
      <Placemark>
        <description>Unknown Point Feature</description>
        <name>Hesna d'Kifa</name>
        <styleUrl>#point1</styleUrl>
        <Point>
          <coordinates>41.4083076000,37.7113168000,0</coordinates>
        </Point>
        <matchUri>syriaca.org/place/92</matchUri>
      </Placemark>
      <Placemark>
        <description>Unknown Point Feature</description>
        <name>Akhlat</name>
        <styleUrl>#point1</styleUrl>
        <Point>
          <coordinates>42.4549055000,38.7481594000,0</coordinates>
        </Point>
        <matchUri>syriaca.org/place/2312</matchUri>
      </Placemark>
      <Placemark>
        <description>Unknown Point Feature</description>
        <name>Nisibis</name>
        <styleUrl>#point1</styleUrl>
        <Point>
          <coordinates>41.2151456000,37.0667780000,0</coordinates>
        </Point>
        <matchUri>syriaca.org/place/142</matchUri>
      </Placemark>
      <Placemark>
        <description>Unknown Point Feature</description>
        <name>Arbela/Erbil</name>
        <styleUrl>#point1</styleUrl>
        <Point>
          <coordinates>44.0091491000,36.1912479000,0</coordinates>
        </Point>
        <matchUri>syriaca.org/place/13</matchUri>
      </Placemark>
      <Placemark>
        <description>Unknown Point Feature</description>
        <name>Mosul</name>
        <styleUrl>#point1</styleUrl>
        <Point>
          <coordinates>43.1251869000,36.3410645000,0</coordinates>
        </Point>
        <matchUri>syriaca.org/place/139</matchUri>
      </Placemark>
      <Placemark>
        <description>Unknown Point Feature</description>
        <name>Daququa</name>
        <styleUrl>#point1</styleUrl>
        <Point>
          <coordinates>44.4486110000,35.1383330000,0</coordinates>
        </Point>
        <matchUri>syriaca.org/place/812</matchUri>
      </Placemark>
      <Placemark>
        <description>Unknown Point Feature</description>
        <name>Tabriz</name>
        <styleUrl>#point1</styleUrl>
        <Point>
          <coordinates>46.3000000000,38.0666670000,0</coordinates>
        </Point>
        <matchUri>syriaca.org/place/308</matchUri>
      </Placemark>
      <Placemark>
        <description>Unknown Point Feature</description>
        <name>Van</name>
        <styleUrl>#point1</styleUrl>
        <Point>
          <coordinates>43.3407211000,38.5027734000,0</coordinates>
        </Point>
        <matchUri>syriaca.org/place/791</matchUri>
      </Placemark>
      <Placemark>
        <description>Unknown Point Feature</description>
        <name>Hulwan/Beth Lashpar</name>
        <styleUrl>#point1</styleUrl>
        <Point>
          <coordinates>45.8692262000,34.4580440000,0</coordinates>
        </Point>
        <matchUri>syriaca.org/place/220</matchUri>
      </Placemark>
      <Placemark>
        <description>Unknown Point Feature</description>
        <name>Seleucia</name>
        <styleUrl>#point1</styleUrl>
        <Point>
          <coordinates>44.5257854000,33.1008353000,0</coordinates>
        </Point>
        <matchUri>syriaca.org/place/182</matchUri>
      </Placemark>
      <Placemark>
        <description>Unknown Point Feature</description>
        <name>Ctesiphon</name>
        <styleUrl>#point1</styleUrl>
        <Point>
          <coordinates>44.5806956000,33.0937168000,0</coordinates>
        </Point>
        <matchUri>syriaca.org/place/58</matchUri>
      </Placemark>
      <Placemark>
        <description>Unknown Point Feature</description>
        <name>Rai</name>
        <styleUrl>#point1</styleUrl>
        <Point>
          <coordinates>51.4369476000,35.5964083000,0</coordinates>
        </Point>
        <matchUri>syriaca.org/place/38</matchUri>
      </Placemark>
      <Placemark>
        <description>Unknown Point Feature</description>
        <name>Basra</name>
        <styleUrl>#point1</styleUrl>
        <Point>
          <coordinates>47.7341366000,30.3999740000,0</coordinates>
        </Point>
        <matchUri>syriaca.org/place/4057</matchUri>
      </Placemark>
      <Placemark>
        <description>Unknown Point Feature</description>
        <name>Rev Ardashir</name>
        <styleUrl>#point1</styleUrl>
        <Point>
          <coordinates>50.8367210000,28.9119190000,0</coordinates>
        </Point>
        <matchUri>syriaca.org/place/4173</matchUri>
      </Placemark>
      <Placemark>
        <description>Unknown Point Feature</description>
        <name>Raqqa</name>
        <styleUrl>#point1</styleUrl>
        <Point>
          <coordinates>39.0166670000,35.9500000000,0</coordinates>
        </Point>
        <matchUri>syriaca.org/place/109</matchUri>
      </Placemark>
      <Placemark>
        <description>Unknown Point Feature</description>
        <name>Arzon/Arzun</name>
        <styleUrl>#point1</styleUrl>
        <Point>
          <coordinates>41.3843930000,37.9761472000,0</coordinates>
        </Point>
        <matchUri>syriaca.org/place/285</matchUri>
      </Placemark>
      <Placemark>
        <description>Unknown Point Feature</description>
        <name>Bidlis</name>
        <styleUrl>#point1</styleUrl>
        <Point>
          <coordinates>42.1074200000,38.4016128000,0</coordinates>
        </Point>
        <matchUri>syriaca.org/place/2283</matchUri>
      </Placemark>
      <Placemark>
        <description>Unknown Point Feature</description>
        <name>Qardu</name>
        <styleUrl>#point1</styleUrl>
        <Point>
          <coordinates>42.3441670000,37.3694440000,0</coordinates>
        </Point>
        <matchUri>syriaca.org/place/2355</matchUri>
      </Placemark>
      <Placemark>
        <description>Unknown Point Feature</description>
        <name>Balad</name>
        <styleUrl>#point1</styleUrl>
        <Point>
          <coordinates>42.7355719000,36.5088083000,0</coordinates>
        </Point>
        <matchUri>syriaca.org/place/42</matchUri>
      </Placemark>
      <Placemark>
        <description>Unknown Point Feature</description>
        <name>Hdatta</name>
        <styleUrl>#point1</styleUrl>
        <Point>
          <coordinates>43.3644962000,35.9984762000,0</coordinates>
        </Point>
        <matchUri>syriaca.org/place/2096</matchUri>
      </Placemark>
      <Placemark>
        <description>Unknown Point Feature</description>
        <name>Tagrit</name>
        <styleUrl>#point1</styleUrl>
        <Point>
          <coordinates>43.6833300000,34.6000000000,0</coordinates>
        </Point>
        <matchUri>syriaca.org/place/193</matchUri>
      </Placemark>
      <Placemark>
        <description>Unknown Point Feature</description>
        <name>Carrhae/Harran</name>
        <styleUrl>#point1</styleUrl>
        <Point>
          <coordinates>39.0311623000,36.8646007000,0</coordinates>
        </Point>
        <matchUri>syriaca.org/place/216</matchUri>
      </Placemark>
      <Placemark>
        <description>Unknown Point Feature</description>
        <name>Baghdad</name>
        <styleUrl>#point1</styleUrl>
        <Point>
          <coordinates>44.3406487000,33.3325362000,0</coordinates>
        </Point>
        <matchUri>syriaca.org/place/41</matchUri>
      </Placemark>
      <Placemark>
        <description>Unknown Point Feature</description>
        <name>Ispahan</name>
        <styleUrl>#point1</styleUrl>
        <Point>
          <coordinates>51.6791910000,32.6513900000,0</coordinates>
        </Point>
        <matchUri>syriaca.org/place/830</matchUri>
      </Placemark>
      <Placemark>
        <description>Unknown Point Feature</description>
        <name>Hamadan</name>
        <styleUrl>#point1</styleUrl>
        <Point>
          <coordinates>48.5143429000,34.7998274000,0</coordinates>
        </Point>
        <matchUri>syriaca.org/place/823</matchUri>
      </Placemark>
      <Placemark>
        <description>Unknown Point Feature</description>
        <name>Nihawand</name>
        <styleUrl>#point1</styleUrl>
        <Point>
          <coordinates>48.3722341000,34.1887930000,0</coordinates>
        </Point>
        <matchUri>syriaca.org/place/4036</matchUri>
      </Placemark>
      <Placemark>
        <description>Unknown Point Feature</description>
        <name>Susa</name>
        <styleUrl>#point1</styleUrl>
        <Point>
          <coordinates>48.2485400000,32.1920200000,0</coordinates>
        </Point>
        <matchUri>syriaca.org/place/415</matchUri>
      </Placemark>
      <Placemark>
        <description>Unknown Point Feature</description>
        <name>Kashkar</name>
        <styleUrl>#point1</styleUrl>
        <Point>
          <coordinates>46.3083172000,32.1919570000,0</coordinates>
        </Point>
        <matchUri>syriaca.org/place/111</matchUri>
        <matchUri>syriaca.org/place/308</matchUri>
      </Placemark>
      <Placemark>
        <description>Unknown Point Feature</description>
        <name>Dinawar</name>
        <styleUrl>#point1</styleUrl>
        <Point>
          <coordinates>47.4606156000,34.6154622000,0</coordinates>
        </Point>
        <matchUri>syriaca.org/place/4070</matchUri>
      </Placemark>
      <Placemark>
        <description>Unknown Point Feature</description>
        <name>Shahrzur</name>
        <styleUrl>#point1</styleUrl>
        <Point>
          <coordinates>45.6498671000,35.3599012000,0</coordinates>
        </Point>
        <matchUri>syriaca.org/place/2371</matchUri>
      </Placemark>
      <Placemark>
        <description>Unknown Point Feature</description>
        <name>Shigar</name>
        <styleUrl>#point1</styleUrl>
        <Point>
          <coordinates>41.8551636000,36.3285410000,0</coordinates>
        </Point>
        <matchUri>syriaca.org/place/184</matchUri>
      </Placemark>
      <Placemark>
        <description>Unknown Point Feature</description>
        <name>Edessa</name>
        <styleUrl>#point1</styleUrl>
        <Point>
          <coordinates>38.7838840000,37.1453862000,0</coordinates>
        </Point>
        <matchUri>syriaca.org/place/78</matchUri>
      </Placemark>
      <Placemark>
        <description>Unknown Point Feature</description>
        <name>Rome</name>
        <styleUrl>#point1</styleUrl>
        <Point>
          <coordinates>12.4922919000,41.8902500000,0</coordinates>
        </Point>
      </Placemark>
      <Placemark>
        <description>Unknown Point Feature</description>
        <name>Merv</name>
        <styleUrl>#point1</styleUrl>
        <Point>
          <coordinates>62.1778107000,37.6675842000,0</coordinates>
        </Point>
        <matchUri>syriaca.org/place/607</matchUri>
      </Placemark>
      <Placemark>
        <description>Unknown Point Feature</description>
        <name>Khotan</name>
        <styleUrl>#point1</styleUrl>
        <Point>
          <coordinates>79.9354850000,37.1074970000,0</coordinates>
        </Point>
        <matchUri>syriaca.org/place/4297</matchUri>
      </Placemark>
      <Placemark>
        <description>Unknown Point Feature</description>
        <name>Khanbaliq/Beijing</name>
        <styleUrl>#point1</styleUrl>
        <Point>
          <coordinates>116.3907051000,39.9171754000,0</coordinates>
        </Point>
        <matchUri>syriaca.org/place/2539</matchUri>
      </Placemark>
      <Placemark>
        <description>Unknown Point Feature</description>
        <name>Konye-Urgench</name>
        <styleUrl>#point1</styleUrl>
        <Point>
          <coordinates>59.1445541000,42.3000715000,0</coordinates>
        </Point>
        <matchUri>syriaca.org/place/4298</matchUri>
      </Placemark>
      <Placemark>
        <description>Unknown Point Feature</description>
        <name>Luoyang</name>
        <styleUrl>#point1</styleUrl>
        <Point>
          <coordinates>112.4733925000,34.6850989000,0</coordinates>
        </Point>
        <matchUri>syriaca.org/place/2534</matchUri>
      </Placemark>
      <Placemark>
        <description>Unknown Point Feature</description>
        <name>Jerusalem</name>
        <styleUrl>#point1</styleUrl>
        <Point>
          <coordinates>35.2297640000,31.7784529000,0</coordinates>
        </Point>
        <matchUri>syriaca.org/place/104</matchUri>
      </Placemark>
      <Placemark>
        <description>Unknown Point Feature</description>
        <name>Qaraqorum</name>
        <styleUrl>#point1</styleUrl>
        <Point>
          <coordinates>102.8477780000,47.2102780000,0</coordinates>
        </Point>
        <matchUri>syriaca.org/place/4398</matchUri>
      </Placemark>
      <Placemark>
        <description>Unknown Point Feature</description>
        <name>Palmyra</name>
        <styleUrl>#point1</styleUrl>
        <Point>
          <coordinates>38.2672200000,34.5600000000,0</coordinates>
        </Point>
        <matchUri>syriaca.org/place/153</matchUri>
      </Placemark>
      <Placemark>
        <description>Unknown Point Feature</description>
        <name>Panjikent</name>
        <styleUrl>#point1</styleUrl>
        <Point>
          <coordinates>67.6169014000,39.4886085000,0</coordinates>
        </Point>
        <matchUri>syriaca.org/place/4317</matchUri>
      </Placemark>
      <Placemark>
        <description>Unknown Point Feature</description>
        <name>Quanzhou</name>
        <styleUrl>#point1</styleUrl>
        <Point>
          <coordinates>118.5810614000,24.9120889000,0</coordinates>
        </Point>
        <matchUri>syriaca.org/place/2535</matchUri>
      </Placemark>
      <Placemark>
        <description>Unknown Point Feature</description>
        <name>Samarqand</name>
        <styleUrl>#point1</styleUrl>
        <Point>
          <coordinates>66.9682789000,39.6551179000,0</coordinates>
        </Point>
        <matchUri>syriaca.org/place/865</matchUri>
      </Placemark>
      <Placemark>
        <description>Unknown Point Feature</description>
        <name>Samarra</name>
        <styleUrl>#point1</styleUrl>
        <Point>
          <coordinates>43.8802421000,34.2071707000,0</coordinates>
        </Point>
        <matchUri>syriaca.org/place/4087</matchUri>
      </Placemark>
      <Placemark>
        <description>Unknown Point Feature</description>
        <name>Salmas</name>
        <styleUrl>#point1</styleUrl>
        <Point>
          <coordinates>44.7716475000,38.1971801000,0</coordinates>
        </Point>
        <matchUri>syriaca.org/place/177</matchUri>
      </Placemark>
      <Placemark>
        <description>Unknown Point Feature</description>
        <name>Samosata (Old Samsat)</name>
        <styleUrl>#point1</styleUrl>
        <Point>
          <coordinates>38.5129239418,37.5152405755,0</coordinates>
        </Point>
        <matchUri>syriaca.org/place/178</matchUri>
      </Placemark>
      <Placemark>
        <description>Unknown Point Feature</description>
        <name>Scythopolis</name>
        <styleUrl>#point1</styleUrl>
        <Point>
          <coordinates>35.5022335000,32.5022881000,0</coordinates>
        </Point>
        <matchUri>syriaca.org/place/180</matchUri>
      </Placemark>
      <Placemark>
        <description>Unknown Point Feature</description>
        <name>Semele</name>
        <styleUrl>#point1</styleUrl>
        <Point>
          <coordinates>42.8473878000,36.8568750000,0</coordinates>
        </Point>
        <matchUri>syriaca.org/place/4461</matchUri>
      </Placemark>
      <Placemark>
        <description>Unknown Point Feature</description>
        <name>Sergiopolis/Resafa</name>
        <styleUrl>#point1</styleUrl>
        <Point>
          <coordinates>38.7580061000,35.6290295000,0</coordinates>
        </Point>
        <matchUri>syriaca.org/place/165</matchUri>
      </Placemark>
      <Placemark>
        <description>Unknown Point Feature</description>
        <name>Qarashahr</name>
        <styleUrl>#point1</styleUrl>
        <Point>
          <coordinates>86.5068626000,41.9535222000,0</coordinates>
        </Point>
        <matchUri>syriaca.org/place/4321</matchUri>
      </Placemark>
      <Placemark>
        <description>Unknown Point Feature</description>
        <name>Qarshi</name>
        <styleUrl>#point1</styleUrl>
        <Point>
          <coordinates>65.7817125000,38.8366657000,0</coordinates>
        </Point>
        <matchUri>syriaca.org/place/4265</matchUri>
      </Placemark>
      <Placemark>
        <description>Unknown Point Feature</description>
        <name>Qashan</name>
        <styleUrl>#point1</styleUrl>
        <Point>
          <coordinates>51.4405096000,33.9729758000,0</coordinates>
        </Point>
        <matchUri>syriaca.org/place/4268</matchUri>
      </Placemark>
      <Placemark>
        <description>Unknown Point Feature</description>
        <name>Qayaliq</name>
        <styleUrl>#point1</styleUrl>
        <Point>
          <coordinates>79.0495491000,45.1316800000,0</coordinates>
        </Point>
        <matchUri>syriaca.org/place/4323</matchUri>
      </Placemark>
      <Placemark>
        <description>Unknown Point Feature</description>
        <name>Qum</name>
        <styleUrl>#point1</styleUrl>
        <Point>
          <coordinates>50.8786297000,34.6417881000,0</coordinates>
        </Point>
        <matchUri>syriaca.org/place/4217</matchUri>
      </Placemark>
      <Placemark>
        <description>Unknown Point Feature</description>
        <name>Qamishli</name>
        <styleUrl>#point1</styleUrl>
        <Point>
          <coordinates>41.2237072000,37.0430007000,0</coordinates>
        </Point>
        <matchUri>syriaca.org/place/160</matchUri>
      </Placemark>
      <Placemark>
        <description>Unknown Point Feature</description>
        <name>Osh</name>
        <styleUrl>#point1</styleUrl>
        <Point>
          <coordinates>72.7855396000,40.5273867000,0</coordinates>
        </Point>
        <matchUri>syriaca.org/place/4314</matchUri>
      </Placemark>
      <Placemark>
        <description>Unknown Point Feature</description>
        <name>Abarshahr/Nishapur</name>
        <styleUrl>#point1</styleUrl>
        <Point>
          <coordinates>58.8473400000,36.1709400000,0</coordinates>
        </Point>
        <matchUri>syriaca.org/place/4220</matchUri>
      </Placemark>
      <Placemark>
        <description>Unknown Point Feature</description>
        <name>Nineveh</name>
        <styleUrl>#point1</styleUrl>
        <Point>
          <coordinates>43.1546402000,36.3597897000,0</coordinates>
        </Point>
        <matchUri>syriaca.org/place/144</matchUri>
      </Placemark>
      <Placemark>
        <description>Unknown Point Feature</description>
        <name>Navekath</name>
        <styleUrl>#point1</styleUrl>
        <Point>
          <coordinates>75.0081253000,42.9170864000,0</coordinates>
        </Point>
        <matchUri>syriaca.org/place/4313</matchUri>
      </Placemark>
      <Placemark>
        <description>Unknown Point Feature</description>
        <name>Zhenjiang</name>
        <styleUrl>#point1</styleUrl>
        <Point>
          <coordinates>119.4441319000,32.2138903000,0</coordinates>
        </Point>
        <matchUri>syriaca.org/place/2537</matchUri>
      </Placemark>
      <Placemark>
        <description>Unknown Point Feature</description>
        <name>Yangzhou</name>
        <styleUrl>#point1</styleUrl>
        <Point>
          <coordinates>119.4218159000,32.4172112000,0</coordinates>
        </Point>
        <matchUri>syriaca.org/place/2536</matchUri>
      </Placemark>
      <Placemark>
        <description>Unknown Point Feature</description>
        <name>Xiapu</name>
        <styleUrl>#point1</styleUrl>
        <Point>
          <coordinates>119.9966025000,26.8858756000,0</coordinates>
        </Point>
        <matchUri>syriaca.org/place/4415</matchUri>
      </Placemark>
      <Placemark>
        <description>Unknown Point Feature</description>
        <name>Chang'an/Xi'an</name>
        <styleUrl>#point1</styleUrl>
        <Point>
          <coordinates>108.9427042000,34.2658353000,0</coordinates>
        </Point>
        <matchUri>syriaca.org/place/479</matchUri>
      </Placemark>
      <Placemark>
        <description>Unknown Point Feature</description>
        <name>Ulaan Tolgoi</name>
        <styleUrl>#point1</styleUrl>
        <Point>
          <coordinates>91.3200000000,47.0400000000,0</coordinates>
        </Point>
        <matchUri>syriaca.org/place/4332</matchUri>
      </Placemark>
      <Placemark>
        <description>Unknown Point Feature</description>
        <name>Turfan</name>
        <styleUrl>#point1</styleUrl>
        <Point>
          <coordinates>89.2032230000,42.9345347000,0</coordinates>
        </Point>
        <matchUri>syriaca.org/place/478</matchUri>
      </Placemark>
      <Placemark>
        <description>Unknown Point Feature</description>
        <name>Trebizond</name>
        <styleUrl>#point1</styleUrl>
        <Point>
          <coordinates>39.7197390000,41.0043544000,0</coordinates>
        </Point>
        <matchUri>syriaca.org/place/4052</matchUri>
      </Placemark>
      <Placemark>
        <description>Unknown Point Feature</description>
        <name>Yarkand</name>
        <styleUrl>#point1</styleUrl>
        <Point>
          <coordinates>77.2569323000,38.4174600000,0</coordinates>
        </Point>
        <matchUri>syriaca.org/place/4334</matchUri>
      </Placemark>
      <Placemark>
        <description>Unknown Point Feature</description>
        <name>Uzgand</name>
        <styleUrl>#point1</styleUrl>
        <Point>
          <coordinates>73.2973909000,40.7713444000,0</coordinates>
        </Point>
        <matchUri>syriaca.org/place/4333</matchUri>
      </Placemark>
      <Placemark>
        <description>Unknown Point Feature</description>
        <name>Urgut</name>
        <styleUrl>#point1</styleUrl>
        <Point>
          <coordinates>67.2430873000,39.3992100000,0</coordinates>
        </Point>
        <matchUri>syriaca.org/place/649</matchUri>
      </Placemark>
      <Placemark>
        <description>Unknown Point Feature</description>
        <name>Tella/Constantina</name>
        <styleUrl>#point1</styleUrl>
        <Point>
          <coordinates>39.7693062000,37.2316952000,0</coordinates>
        </Point>
        <matchUri>syriaca.org/place/200</matchUri>
      </Placemark>
      <Placemark>
        <description>Unknown Point Feature</description>
        <name>Tashkent</name>
        <styleUrl>#point1</styleUrl>
        <Point>
          <coordinates>69.2376208000,41.3236845000,0</coordinates>
        </Point>
        <matchUri>syriaca.org/place/4329</matchUri>
      </Placemark>
      <Placemark>
        <description>Unknown Point Feature</description>
        <name>Talgar</name>
        <styleUrl>#point1</styleUrl>
        <Point>
          <coordinates>77.2477484000,43.3032575000,0</coordinates>
        </Point>
        <matchUri>syriaca.org/place/4327</matchUri>
      </Placemark>
      <Placemark>
        <description>Unknown Point Feature</description>
        <name>Talas/Taraz</name>
        <styleUrl>#point1</styleUrl>
        <Point>
          <coordinates>71.3922501000,42.8983521000,0</coordinates>
        </Point>
        <matchUri>syriaca.org/place/4325</matchUri>
      </Placemark>
      <Placemark>
        <description>Unknown Point Feature</description>
        <name>Sis</name>
        <styleUrl>#point1</styleUrl>
        <Point>
          <coordinates>35.8138204000,37.4457324000,0</coordinates>
        </Point>
        <matchUri>syriaca.org/place/190</matchUri>
      </Placemark>
      <Placemark>
        <description>Unknown Point Feature</description>
        <name>Old Sarai</name>
        <styleUrl>#point1</styleUrl>
        <Point>
          <coordinates>47.4545860000,47.1743550000,0</coordinates>
        </Point>
      </Placemark>
      <Placemark>
        <description>Unknown Point Feature</description>
        <name>New Sarai</name>
        <styleUrl>#point1</styleUrl>
        <Point>
          <coordinates>45.3275000000,48.6858330000,0</coordinates>
        </Point>
      </Placemark>
      <Placemark>
        <description>Unknown Point Feature</description>
        <name>Tel-Bashir</name>
        <styleUrl>#point1</styleUrl>
        <Point>
          <coordinates>37.5590372000,36.8743339000,0</coordinates>
        </Point>
        <matchUri>syriaca.org/place/4107</matchUri>
      </Placemark>
      <Placemark>
        <description>Unknown Point Feature</description>
        <name>Kashgar</name>
        <styleUrl>#point1</styleUrl>
        <Point>
          <coordinates>75.9848356000,39.4722453000,0</coordinates>
        </Point>
        <matchUri>syriaca.org/place/4295</matchUri>
      </Placemark>
      <Placemark>
        <description>Unknown Point Feature</description>
        <name>Kandanad</name>
        <styleUrl>#point1</styleUrl>
        <Point>
          <coordinates>76.3725000000,9.9144440000,0</coordinates>
        </Point>
        <matchUri>syriaca.org/place/448</matchUri>
      </Placemark>
      <Placemark>
        <description>Unknown Point Feature</description>
        <name>Korla</name>
        <styleUrl>#point1</styleUrl>
        <Point>
          <coordinates>86.1740112000,41.7266148000,0</coordinates>
        </Point>
        <matchUri>syriaca.org/place/4300</matchUri>
      </Placemark>
      <Placemark>
        <description>Unknown Point Feature</description>
        <name>Emesa/Homs</name>
        <styleUrl>#point1</styleUrl>
        <Point>
          <coordinates>36.7142487000,34.7233433000,0</coordinates>
        </Point>
        <matchUri>syriaca.org/place/215</matchUri>
      </Placemark>
      <Placemark>
        <description>Unknown Point Feature</description>
        <name>Herat</name>
        <styleUrl>#point1</styleUrl>
        <Point>
          <coordinates>62.1903634000,34.3407608000,0</coordinates>
        </Point>
        <matchUri>syriaca.org/place/523</matchUri>
      </Placemark>
      <Placemark>
        <description>Unknown Point Feature</description>
        <name>Dunhuang</name>
        <styleUrl>#point1</styleUrl>
        <Point>
          <coordinates>94.6674728000,40.1380718000,0</coordinates>
        </Point>
        <matchUri>syriaca.org/place/4000</matchUri>
      </Placemark>
      <Placemark>
        <description>Unknown Point Feature</description>
        <name>Amida/Diyarbakir</name>
        <styleUrl>#point1</styleUrl>
        <Point>
          <coordinates>40.2358389000,37.9112604000,0</coordinates>
        </Point>
        <matchUri>syriaca.org/place/8</matchUri>
      </Placemark>
      <Placemark>
        <description>Unknown Point Feature</description>
        <name>Almaliq</name>
        <styleUrl>#point1</styleUrl>
        <Point>
          <coordinates>80.5330555556,44.2400000000,0</coordinates>
        </Point>
        <matchUri>syriaca.org/place/796</matchUri>
      </Placemark>
      <Placemark>
        <description>Unknown Point Feature</description>
        <name>Ankamaly</name>
        <styleUrl>#point1</styleUrl>
        <Point>
          <coordinates>76.3839698000,10.1897281000,0</coordinates>
        </Point>
        <matchUri>syriaca.org/place/666</matchUri>
      </Placemark>
      <Placemark>
        <description>Unknown Point Feature</description>
        <name>Alexandria</name>
        <styleUrl>#point1</styleUrl>
        <Point>
          <coordinates>29.8960304000,31.1951088000,0</coordinates>
        </Point>
        <matchUri>syriaca.org/place/572</matchUri>
      </Placemark>
      <Placemark>
        <description>Unknown Point Feature</description>
        <name>Zeugma</name>
        <styleUrl>#point1</styleUrl>
        <Point>
          <coordinates>37.8661609000,37.0530879000,0</coordinates>
        </Point>
        <matchUri>syriaca.org/place/209</matchUri>
      </Placemark>
      <Placemark>
        <description>Unknown Point Feature</description>
        <name>Apamea</name>
        <styleUrl>#point1</styleUrl>
        <Point>
          <coordinates>36.3968468000,35.4198320000,0</coordinates>
        </Point>
        <matchUri>syriaca.org/place/11</matchUri>
      </Placemark>
      <Placemark>
        <description>Unknown Point Feature</description>
        <name>Balkh</name>
        <styleUrl>#point1</styleUrl>
        <Point>
          <coordinates>66.9009018000,36.7677672000,0</coordinates>
        </Point>
        <matchUri>syriaca.org/place/4232</matchUri>
      </Placemark>
      <Placemark>
        <description>Unknown Point Feature</description>
        <name>Berytus/Beirut</name>
        <styleUrl>#point1</styleUrl>
        <Point>
          <coordinates>35.5130600000,33.8869400000,0</coordinates>
        </Point>
        <matchUri>syriaca.org/place/46</matchUri>
      </Placemark>
      <Placemark>
        <description>Unknown Point Feature</description>
        <name>Besh-baliq</name>
        <styleUrl>#point1</styleUrl>
        <Point>
          <coordinates>89.2082977000,44.0976640000,0</coordinates>
        </Point>
        <matchUri>syriaca.org/place/4283</matchUri>
      </Placemark>
      <Placemark>
        <description>Unknown Point Feature</description>
        <name>Bostra</name>
        <styleUrl>#point1</styleUrl>
        <Point>
          <coordinates>36.4833330000,32.5166670000,0</coordinates>
        </Point>
        <matchUri>syriaca.org/place/40</matchUri>
      </Placemark>
      <Placemark>
        <description>Unknown Point Feature</description>
        <name>Bukhara</name>
        <styleUrl>#point1</styleUrl>
        <Point>
          <coordinates>64.4122410000,39.7775400000,0</coordinates>
        </Point>
        <matchUri>syriaca.org/place/4238</matchUri>
      </Placemark>
      <Placemark>
        <description>Unknown Point Feature</description>
        <name>Burana/Balasagun</name>
        <styleUrl>#point1</styleUrl>
        <Point>
          <coordinates>75.2500927000,42.7464173000,0</coordinates>
        </Point>
        <matchUri>syriaca.org/place/4284</matchUri>
      </Placemark>
      <Placemark>
        <description>Unknown Point Feature</description>
        <name>Caesarea Maritima</name>
        <styleUrl>#point1</styleUrl>
        <Point>
          <coordinates>34.8925138000,32.5026500000,0</coordinates>
        </Point>
        <matchUri>syriaca.org/place/53</matchUri>
      </Placemark>
      <Placemark>
        <description>Unknown Point Feature</description>
        <name>Chifeng</name>
        <styleUrl>#point1</styleUrl>
        <Point>
          <coordinates>118.9636110000,42.2683330000,0</coordinates>
        </Point>
        <matchUri>syriaca.org/place/4353</matchUri>
      </Placemark>
      <Placemark>
        <description>Unknown Point Feature</description>
        <name>Cochin</name>
        <styleUrl>#point1</styleUrl>
        <Point>
          <coordinates>76.2445164000,9.9661032000,0</coordinates>
        </Point>
        <matchUri>syriaca.org/place/507</matchUri>
      </Placemark>
      <Placemark>
        <description>Unknown Point Feature</description>
        <name>Dura/Europos</name>
        <styleUrl>#point1</styleUrl>
        <Point>
          <coordinates>40.7300091000,34.7478894000,0</coordinates>
        </Point>
        <matchUri>syriaca.org/place/77</matchUri>
      </Placemark>
      <Placemark>
        <description>Unknown Point Feature</description>
        <name>Anbar</name>
        <styleUrl>#point1</styleUrl>
        <Point>
          <coordinates>43.6406860000,33.4000693333,0</coordinates>
        </Point>
        <matchUri>syriaca.org/place/211</matchUri>
      </Placemark>
      <Placemark>
        <description>Unknown Point Feature</description>
        <name>Babylon</name>
        <styleUrl>#point1</styleUrl>
        <Point>
          <coordinates>44.4207716000,32.5362493000,0</coordinates>
        </Point>
        <matchUri>syriaca.org/place/4011</matchUri>
      </Placemark>
      <Placemark>
        <description>Unknown Point Feature</description>
        <name>Baquba</name>
        <styleUrl>#point1</styleUrl>
        <Point>
          <coordinates>44.6414101000,33.7537907000,0</coordinates>
        </Point>
        <matchUri>syriaca.org/place/4068</matchUri>
      </Placemark>
      <Placemark>
        <description>Unknown Point Feature</description>
        <name>Assur</name>
        <styleUrl>#point1</styleUrl>
        <Point>
          <coordinates>43.2611775000,35.4596912000,0</coordinates>
        </Point>
        <matchUri>syriaca.org/place/4009</matchUri>
      </Placemark>
      <Placemark>
        <description>Unknown Point Feature</description>
        <name>Fengzhou/Hohhot</name>
        <styleUrl>#point1</styleUrl>
        <Point>
          <coordinates>111.6491228000,40.8086041000,0</coordinates>
        </Point>
        <matchUri>syriaca.org/place/4356</matchUri>
      </Placemark>
      <Placemark>
        <description>Unknown Point Feature</description>
        <name>Guangzhou</name>
        <styleUrl>#point1</styleUrl>
        <Point>
          <coordinates>113.2500000000,23.1166670000,0</coordinates>
        </Point>
        <matchUri>syriaca.org/place/4364</matchUri>
      </Placemark>
      <Placemark>
        <description>Unknown Point Feature</description>
        <name>Goa</name>
        <styleUrl>#point1</styleUrl>
        <Point>
          <coordinates>73.9120000000,15.5030000000,0</coordinates>
        </Point>
        <matchUri>syriaca.org/place/822</matchUri>
      </Placemark>
      <Placemark>
        <description>Unknown Point Feature</description>
        <name>Hakkari</name>
        <styleUrl>#point1</styleUrl>
        <Point>
          <coordinates>43.7408330000,37.5744440000,0</coordinates>
        </Point>
        <matchUri>syriaca.org/place/2310</matchUri>
        <matchUri>syriaca.org/place/107</matchUri>
      </Placemark>
      <Placemark>
        <description>Unknown Point Feature</description>
        <name>Hassake</name>
        <styleUrl>#point1</styleUrl>
        <Point>
          <coordinates>40.7489026000,36.5023318000,0</coordinates>
        </Point>
        <matchUri>syriaca.org/place/213</matchUri>
      </Placemark>
      <Placemark>
        <description>Unknown Point Feature</description>
        <name>Hatra</name>
        <styleUrl>#point1</styleUrl>
        <Point>
          <coordinates>42.7175903000,35.5882946000,0</coordinates>
        </Point>
        <matchUri>syriaca.org/place/93</matchUri>
      </Placemark>
      <Placemark>
        <description>Unknown Point Feature</description>
        <name>Hamath</name>
        <styleUrl>#point1</styleUrl>
        <Point>
          <coordinates>36.7494607000,35.1363876000,0</coordinates>
        </Point>
        <matchUri>syriaca.org/place/91</matchUri>
      </Placemark>
      <Placemark>
        <description>Unknown Point Feature</description>
        <name>Luntai</name>
        <styleUrl>#point1</styleUrl>
        <Point>
          <coordinates>84.2441700000,41.7738900000,0</coordinates>
        </Point>
        <matchUri>syriaca.org/place/4307</matchUri>
      </Placemark>
      <Placemark>
        <description>Unknown Point Feature</description>
        <name>Mylapore</name>
        <styleUrl>#point1</styleUrl>
        <Point>
          <coordinates>80.2779043000,13.0335859000,0</coordinates>
        </Point>
      </Placemark>
      <Placemark>
        <description>Unknown Point Feature</description>
        <name>Trichur</name>
        <styleUrl>#point1</styleUrl>
        <Point>
          <coordinates>76.2144756000,10.5245223000,0</coordinates>
        </Point>
        <matchUri>syriaca.org/place/876</matchUri>
      </Placemark>
      <Placemark>
        <description>Unknown Point Feature</description>
        <name>Aqsu</name>
        <styleUrl>#point1</styleUrl>
        <Point>
          <coordinates>80.2585387000,41.1607731000,0</coordinates>
        </Point>
        <matchUri>syriaca.org/place/4281</matchUri>
      </Placemark>
      <Placemark>
        <description>Unknown Point Feature</description>
        <name>Aq-Beshim/Suyab</name>
        <styleUrl>#point1</styleUrl>
        <Point>
          <coordinates>75.2415300000,42.8133700000,0</coordinates>
        </Point>
        <matchUri>syriaca.org/place/4279</matchUri>
      </Placemark>
      <Placemark>
        <description>Unknown Point Feature</description>
        <name>Adummatu/Dumatha</name>
        <styleUrl>#point1</styleUrl>
        <Point>
          <coordinates>39.8837721000,29.8287032000,0</coordinates>
        </Point>
        <matchUri>syriaca.org/place/4001</matchUri>
      </Placemark>
      <Placemark>
        <description>Unknown Point Feature</description>
        <name>Bazyan</name>
        <styleUrl>#point1</styleUrl>
        <Point>
          <coordinates>45.1461697000,35.5920288000,0</coordinates>
        </Point>
        <matchUri>syriaca.org/place/4184</matchUri>
      </Placemark>
      <Placemark>
        <description>Unknown Point Feature</description>
        <name>Beth-Sbirino</name>
        <styleUrl>#point1</styleUrl>
        <Point>
          <coordinates>41.6210765000,37.3093426000,0</coordinates>
        </Point>
        <matchUri>syriaca.org/place/49</matchUri>
      </Placemark>
      <Placemark>
        <description>Unknown Point Feature</description>
        <name>Cyrrhus</name>
        <styleUrl>#point1</styleUrl>
        <Point>
          <coordinates>36.9564629000,36.7439051000,0</coordinates>
        </Point>
        <matchUri>syriaca.org/place/65</matchUri>
      </Placemark>
      <Placemark>
        <description>Unknown Point Feature</description>
        <name>Estil</name>
        <styleUrl>#point1</styleUrl>
        <Point>
          <coordinates>41.3345629000,37.4257253000,0</coordinates>
        </Point>
        <matchUri>syriaca.org/place/4455</matchUri>
      </Placemark>
      <Placemark>
        <description>Unknown Point Feature</description>
        <name>Gilgit</name>
        <styleUrl>#point1</styleUrl>
        <Point>
          <coordinates>74.3033266000,35.9230980000,0</coordinates>
        </Point>
        <matchUri>syriaca.org/place/4289</matchUri>
      </Placemark>
      <Placemark>
        <description>Unknown Point Feature</description>
        <name>Gonbad-e Qabus</name>
        <styleUrl>#point1</styleUrl>
        <Point>
          <coordinates>55.1689893000,37.2581032000,0</coordinates>
        </Point>
      </Placemark>
      <Placemark>
        <description>Unknown Point Feature</description>
        <name>(Dasht Qal`eh)</name>
        <styleUrl>#point1</styleUrl>
        <Point>
          <coordinates>55.2397728000,37.1767314000,0</coordinates>
        </Point>
      </Placemark>
      <Placemark>
        <description>Unknown Point Feature</description>
        <name>Gurgan</name>
        <styleUrl>#point1</styleUrl>
        <Point>
          <coordinates>55.1316905000,37.2349924000,0</coordinates>
        </Point>
        <matchUri>syriaca.org/place/4246</matchUri>
      </Placemark>
      <Placemark>
        <description>Unknown Point Feature</description>
        <name>Hirta</name>
        <styleUrl>#point1</styleUrl>
        <Point>
          <coordinates>44.4804990000,31.8872054000,0</coordinates>
        </Point>
        <matchUri>syriaca.org/place/219</matchUri>
      </Placemark>
      <Placemark>
        <description>Unknown Point Feature</description>
        <name>Karka d'Ledan/Eran-xwarrah-Shabuhr (Ivan-e Kerkha)</name>
        <styleUrl>#point1</styleUrl>
        <Point>
          <coordinates>48.1224775000,32.3299690000,0</coordinates>
        </Point>
        <matchUri>syriaca.org/place/656</matchUri>
      </Placemark>
      <Placemark>
        <description>Unknown Point Feature</description>
        <name>Karka d'Maishan</name>
        <styleUrl>#point1</styleUrl>
        <Point>
          <coordinates>47.5788260000,30.8946388000,0</coordinates>
        </Point>
        <matchUri>syriaca.org/place/4028</matchUri>
      </Placemark>
      <Placemark>
        <description>Unknown Point Feature</description>
        <name>Koshang</name>
        <styleUrl>#point1</styleUrl>
        <Point>
          <coordinates>109.9632740000,39.8223149000,0</coordinates>
        </Point>
        <matchUri>syriaca.org/place/4374</matchUri>
      </Placemark>
      <Placemark>
        <description>Unknown Point Feature</description>
        <name>Kottayam</name>
        <styleUrl>#point1</styleUrl>
        <Point>
          <coordinates>76.5261483000,9.5924139000,0</coordinates>
        </Point>
        <matchUri>syriaca.org/place/1947</matchUri>
      </Placemark>
      <Placemark>
        <description>Unknown Point Feature</description>
        <name>Ma`arat Saidnaya</name>
        <styleUrl>#point1</styleUrl>
        <Point>
          <coordinates>36.3852000000,33.6720400000,0</coordinates>
        </Point>
        <matchUri>syriaca.org/place/281</matchUri>
      </Placemark>
      <Placemark>
        <description>Unknown Point Feature</description>
        <name>Bars-kol</name>
        <styleUrl>#point1</styleUrl>
        <Point>
          <coordinates>93.0086200000,43.5988100000,0</coordinates>
        </Point>
        <matchUri>syriaca.org/place/4339</matchUri>
      </Placemark>
      <Placemark>
        <description>Unknown Point Feature</description>
        <name>Beth-Daraye</name>
        <styleUrl>#point1</styleUrl>
        <Point>
          <coordinates>45.9319925000,33.1236430000,0</coordinates>
        </Point>
        <matchUri>syriaca.org/place/4013</matchUri>
      </Placemark>
      <Placemark>
        <description>Unknown Point Feature</description>
        <name>Hah</name>
        <styleUrl>#point1</styleUrl>
        <Point>
          <coordinates>41.6096690000,37.4747282000,0</coordinates>
        </Point>
        <matchUri>syriaca.org/place/217</matchUri>
      </Placemark>
      <Placemark>
        <description>Unknown Point Feature</description>
        <name>Karajigach</name>
        <styleUrl>#point1</styleUrl>
        <Point>
          <coordinates>74.7112700000,42.8089400000,0</coordinates>
        </Point>
        <matchUri>syriaca.org/place/4294</matchUri>
      </Placemark>
      <Placemark>
        <description>Unknown Point Feature</description>
        <name>Kharg Island</name>
        <styleUrl>#point1</styleUrl>
        <Point>
          <coordinates>50.3060400000,29.2303380000,0</coordinates>
        </Point>
        <matchUri>syriaca.org/place/4160</matchUri>
      </Placemark>
      <Placemark>
        <description>Unknown Point Feature</description>
        <name>Mar Mattai mon.</name>
        <styleUrl>#point1</styleUrl>
        <Point>
          <coordinates>43.4427309000,36.4903691000,0</coordinates>
        </Point>
        <matchUri>syriaca.org/place/227</matchUri>
      </Placemark>
      <Placemark>
        <description>Unknown Point Feature</description>
        <name>Mansuriyya</name>
        <styleUrl>#point1</styleUrl>
        <Point>
          <coordinates>42.1610212000,37.3582020000,0</coordinates>
        </Point>
        <matchUri>syriaca.org/place/1417</matchUri>
      </Placemark>
      <Placemark>
        <description>Unknown Point Feature</description>
        <name>Mar Awgen mon.</name>
        <styleUrl>#point1</styleUrl>
        <Point>
          <coordinates>41.4307201000,37.1937709000,0</coordinates>
        </Point>
        <matchUri>syriaca.org/place/339</matchUri>
      </Placemark>
      <Placemark>
        <description>Unknown Point Feature</description>
        <name>Mar Musa al-Habashi mon.</name>
        <styleUrl>#point1</styleUrl>
        <Point>
          <coordinates>36.8428767000,34.0212262000,0</coordinates>
        </Point>
        <matchUri>syriaca.org/place/228</matchUri>
      </Placemark>
      <Placemark>
        <description>Unknown Point Feature</description>
        <name>Mar Saba mon.</name>
        <styleUrl>#point1</styleUrl>
        <Point>
          <coordinates>35.3311300000,31.7048031000,0</coordinates>
        </Point>
        <matchUri>syriaca.org/place/4137</matchUri>
      </Placemark>
      <Placemark>
        <description>Unknown Point Feature</description>
        <name>Marga (Mergin)</name>
        <styleUrl>#point1</styleUrl>
        <Point>
          <coordinates>43.9505267000,36.7190379000,0</coordinates>
        </Point>
        <matchUri>syriaca.org/place/457</matchUri>
      </Placemark>
      <Placemark>
        <description>Unknown Point Feature</description>
        <name>Mirki</name>
        <styleUrl>#point1</styleUrl>
        <Point>
          <coordinates>73.1810904000,42.8718441000,0</coordinates>
        </Point>
        <matchUri>syriaca.org/place/4311</matchUri>
      </Placemark>
      <Placemark>
        <description>Unknown Point Feature</description>
        <name>Mizdaxkan</name>
        <styleUrl>#point1</styleUrl>
        <Point>
          <coordinates>59.3891501000,42.4008493000,0</coordinates>
        </Point>
        <matchUri>syriaca.org/place/4312</matchUri>
      </Placemark>
      <Placemark>
        <description>Unknown Point Feature</description>
        <name>Beth-`Abe</name>
        <styleUrl>#point1</styleUrl>
        <Point>
          <coordinates>43.8796390000,36.7332220000,0</coordinates>
        </Point>
        <matchUri>syriaca.org/place/223</matchUri>
      </Placemark>
      <Placemark>
        <description>Unknown Point Feature</description>
        <name>Dayr al-Za`faran</name>
        <styleUrl>#point1</styleUrl>
        <Point>
          <coordinates>40.7925797000,37.2994048000,0</coordinates>
        </Point>
        <matchUri>syriaca.org/place/69</matchUri>
      </Placemark>
      <Placemark>
        <description>Unknown Point Feature</description>
        <name>Mar Elian mon.</name>
        <styleUrl>#point1</styleUrl>
        <Point>
          <coordinates>37.2250271000,34.2360291000,0</coordinates>
        </Point>
        <matchUri>syriaca.org/place/275</matchUri>
      </Placemark>
      <Placemark>
        <description>Unknown Point Feature</description>
        <name>Dayr Yaqub</name>
        <styleUrl>#point1</styleUrl>
        <Point>
          <coordinates>38.7747753000,37.1212058000,0</coordinates>
        </Point>
        <matchUri>syriaca.org/place/398</matchUri>
      </Placemark>
      <Placemark>
        <description>Unknown Point Feature</description>
        <name>`Ukbara</name>
        <styleUrl>#point1</styleUrl>
        <Point>
          <coordinates>44.3124962000,33.7824290000,0</coordinates>
        </Point>
        <matchUri>syriaca.org/place/4056</matchUri>
      </Placemark>
      <Placemark>
        <description>Unknown Point Feature</description>
        <name>Enaton</name>
        <styleUrl>#point1</styleUrl>
        <Point>
          <coordinates>29.5405197000,30.9559716000,0</coordinates>
        </Point>
        <matchUri>syriaca.org/place/473</matchUri>
      </Placemark>
      <Placemark>
        <description>Unknown Point Feature</description>
        <name>Bishapur</name>
        <styleUrl>#point1</styleUrl>
        <Point>
          <coordinates>51.5714550000,29.7777878000,0</coordinates>
        </Point>
        <matchUri>syriaca.org/place/4235</matchUri>
      </Placemark>
      <Placemark>
        <description>Unknown Point Feature</description>
        <name>Istakhr</name>
        <styleUrl>#point1</styleUrl>
        <Point>
          <coordinates>52.9090405000,29.9808475000,0</coordinates>
        </Point>
        <matchUri>syriaca.org/place/4250</matchUri>
      </Placemark>
      <Placemark>
        <description>Unknown Point Feature</description>
        <name>Shiraz</name>
        <styleUrl>#point1</styleUrl>
        <Point>
          <coordinates>52.5448608000,29.6095807000,0</coordinates>
        </Point>
        <matchUri>syriaca.org/place/4272</matchUri>
      </Placemark>
      <Placemark>
        <description>Unknown Point Feature</description>
        <name>Darabgard</name>
        <styleUrl>#point1</styleUrl>
        <Point>
          <coordinates>54.4779396000,28.6908135000,0</coordinates>
        </Point>
        <matchUri>syriaca.org/place/4240</matchUri>
      </Placemark>
      <Placemark>
        <description>Unknown Point Feature</description>
        <name>Bardasir (Kirman)</name>
        <styleUrl>#point1</styleUrl>
        <Point>
          <coordinates>57.0949602000,30.2920525000,0</coordinates>
        </Point>
        <matchUri>syriaca.org/place/4233</matchUri>
      </Placemark>
      <Placemark>
        <description>Unknown Point Feature</description>
        <name>Zarang/Sistan</name>
        <styleUrl>#point1</styleUrl>
        <Point>
          <coordinates>61.8495083000,31.0062307000,0</coordinates>
        </Point>
        <matchUri>syriaca.org/place/409</matchUri>
        <matchUri>syriaca.org/place/4278</matchUri>
      </Placemark>
      <Placemark>
        <description>Unknown Point Feature</description>
        <name>Aprah (Farah)</name>
        <styleUrl>#point1</styleUrl>
        <Point>
          <coordinates>62.1115494000,32.3821360000,0</coordinates>
        </Point>
        <matchUri>syriaca.org/place/4226</matchUri>
      </Placemark>
      <Placemark>
        <description>Unknown Point Feature</description>
        <name>Tus</name>
        <styleUrl>#point1</styleUrl>
        <Point>
          <coordinates>59.5104825000,36.4877038000,0</coordinates>
        </Point>
        <matchUri>syriaca.org/place/4276</matchUri>
      </Placemark>
      <Placemark>
        <description>Unknown Point Feature</description>
        <name>Pelusium</name>
        <styleUrl>#point1</styleUrl>
        <Point>
          <coordinates>32.5461388000,31.0429333000,0</coordinates>
        </Point>
        <matchUri>syriaca.org/place/1473</matchUri>
      </Placemark>
      <Placemark>
        <description>Unknown Point Feature</description>
        <name>Damietta</name>
        <styleUrl>#point1</styleUrl>
        <Point>
          <coordinates>31.8162346000,31.4218151000,0</coordinates>
        </Point>
        <matchUri>syriaca.org/place/4127</matchUri>
      </Placemark>
      <Placemark>
        <description>Unknown Point Feature</description>
        <name>Cairo</name>
        <styleUrl>#point1</styleUrl>
        <Point>
          <coordinates>31.2408257000,30.0113618000,0</coordinates>
        </Point>
        <matchUri>syriaca.org/place/521</matchUri>
      </Placemark>
      <Placemark>
        <description>Unknown Point Feature</description>
        <name>Memphis</name>
        <styleUrl>#point1</styleUrl>
        <Point>
          <coordinates>31.2542582000,29.8523692000,0</coordinates>
        </Point>
        <matchUri>syriaca.org/place/4138</matchUri>
      </Placemark>
      <Placemark>
        <description>Unknown Point Feature</description>
        <name>Tyre</name>
        <styleUrl>#point1</styleUrl>
        <Point>
          <coordinates>35.1948738000,33.2711298000,0</coordinates>
        </Point>
        <matchUri>syriaca.org/place/195</matchUri>
      </Placemark>
      <Placemark>
        <description>Unknown Point Feature</description>
        <name>Tripoli</name>
        <styleUrl>#point1</styleUrl>
        <Point>
          <coordinates>35.8428955000,34.4373542000,0</coordinates>
        </Point>
        <matchUri>syriaca.org/place/203</matchUri>
      </Placemark>
      <Placemark>
        <description>Unknown Point Feature</description>
        <name>Laodicea/Latakia</name>
        <styleUrl>#point1</styleUrl>
        <Point>
          <coordinates>35.7791233000,35.5106403000,0</coordinates>
        </Point>
        <matchUri>syriaca.org/place/118</matchUri>
      </Placemark>
      <Placemark>
        <description>Unknown Point Feature</description>
        <name>Seleucia Pieria</name>
        <styleUrl>#point1</styleUrl>
        <Point>
          <coordinates>35.9402275000,36.1233168000,0</coordinates>
        </Point>
        <matchUri>syriaca.org/place/183</matchUri>
      </Placemark>
      <Placemark>
        <description>Unknown Point Feature</description>
        <name>Alexandretta/Iskenderun</name>
        <styleUrl>#point1</styleUrl>
        <Point>
          <coordinates>36.1682796000,36.5857603000,0</coordinates>
        </Point>
        <matchUri>syriaca.org/place/663</matchUri>
      </Placemark>
      <Placemark>
        <description>Unknown Point Feature</description>
        <name>Tarsus</name>
        <styleUrl>#point1</styleUrl>
        <Point>
          <coordinates>34.8978138000,36.9180925000,0</coordinates>
        </Point>
        <matchUri>syriaca.org/place/196</matchUri>
      </Placemark>
      <Placemark>
        <description>Unknown Point Feature</description>
        <name>Caesarea/Kayseri</name>
        <styleUrl>#point1</styleUrl>
        <Point>
          <coordinates>35.4888439000,38.7211775000,0</coordinates>
        </Point>
        <matchUri>syriaca.org/place/60</matchUri>
      </Placemark>
      <Placemark>
        <description>Unknown Point Feature</description>
        <name>Sebasteia/Sivas</name>
        <styleUrl>#point1</styleUrl>
        <Point>
          <coordinates>37.0149994000,39.7455401000,0</coordinates>
        </Point>
        <matchUri>syriaca.org/place/4049</matchUri>
        <matchUri>syriaca.org/place/4093</matchUri>
      </Placemark>
      <Placemark>
        <description>Unknown Point Feature</description>
        <name>Neokaisareia/Niksar</name>
        <styleUrl>#point1</styleUrl>
        <Point>
          <coordinates>36.9553256000,40.5917960000,0</coordinates>
        </Point>
        <matchUri>syriaca.org/place/4035</matchUri>
        <matchUri>syriaca.org/place/466</matchUri>
      </Placemark>
      <Placemark>
        <description>Unknown Point Feature</description>
        <name>Amaseia/Amasya</name>
        <styleUrl>#point1</styleUrl>
        <Point>
          <coordinates>35.8283043000,40.6549876000,0</coordinates>
        </Point>
        <matchUri>syriaca.org/place/292</matchUri>
      </Placemark>
      <Placemark>
        <description>Unknown Point Feature</description>
        <name>Hromkla</name>
        <styleUrl>#point1</styleUrl>
        <Point>
          <coordinates>37.8382874000,37.2709793000,0</coordinates>
        </Point>
        <matchUri>syriaca.org/place/97</matchUri>
      </Placemark>
      <Placemark>
        <description>Unknown Point Feature</description>
        <name>Arshamshat</name>
        <styleUrl>#point1</styleUrl>
        <Point>
          <coordinates>39.7653580000,38.6218329000,0</coordinates>
        </Point>
        <matchUri>syriaca.org/place/286</matchUri>
      </Placemark>
      <Placemark>
        <description>Unknown Point Feature</description>
        <name>Theodosiopolis/Karin/Erzurum</name>
        <styleUrl>#point1</styleUrl>
        <Point>
          <coordinates>41.2769651000,39.9078269000,0</coordinates>
        </Point>
        <matchUri>syriaca.org/place/484</matchUri>
      </Placemark>
      <Placemark>
        <description>Unknown Point Feature</description>
        <name>Dvin</name>
        <styleUrl>#point1</styleUrl>
        <Point>
          <coordinates>44.5780134000,40.0048046000,0</coordinates>
        </Point>
        <matchUri>syriaca.org/place/4018</matchUri>
      </Placemark>
      <Placemark>
        <description>Unknown Point Feature</description>
        <name>Artashat</name>
        <styleUrl>#point1</styleUrl>
        <Point>
          <coordinates>44.5720482000,39.8812229000,0</coordinates>
        </Point>
        <matchUri>syriaca.org/place/4007</matchUri>
      </Placemark>
      <Placemark>
        <description>Unknown Point Feature</description>
        <name>Vagharshapat/Echmiadzin</name>
        <styleUrl>#point1</styleUrl>
        <Point>
          <coordinates>44.2909098000,40.1619194000,0</coordinates>
        </Point>
        <matchUri>syriaca.org/place/4054</matchUri>
      </Placemark>
      <Placemark>
        <description>Unknown Point Feature</description>
        <name>Kars</name>
        <styleUrl>#point1</styleUrl>
        <Point>
          <coordinates>43.0896664000,40.6134312000,0</coordinates>
        </Point>
        <matchUri>syriaca.org/place/4029</matchUri>
      </Placemark>
      <Placemark>
        <description>Unknown Point Feature</description>
        <name>Ani</name>
        <styleUrl>#point1</styleUrl>
        <Point>
          <coordinates>43.5710049000,40.5085461000,0</coordinates>
        </Point>
        <matchUri>syriaca.org/place/4005</matchUri>
      </Placemark>
      <Placemark>
        <description>Unknown Point Feature</description>
        <name>Partaw/Bardha`ah</name>
        <styleUrl>#point1</styleUrl>
        <Point>
          <coordinates>47.1282792000,40.3831830000,0</coordinates>
        </Point>
        <matchUri>syriaca.org/place/4064</matchUri>
        <matchUri>syriaca.org/place/4043</matchUri>
      </Placemark>
      <Placemark>
        <description>Unknown Point Feature</description>
        <name>Nakhchivan</name>
        <styleUrl>#point1</styleUrl>
        <Point>
          <coordinates>45.4125023000,39.1971411000,0</coordinates>
        </Point>
        <matchUri>syriaca.org/place/4081</matchUri>
      </Placemark>
      <Placemark>
        <description>Unknown Point Feature</description>
        <name>Tat`ev</name>
        <styleUrl>#point1</styleUrl>
        <Point>
          <coordinates>46.2504244000,39.3795253000,0</coordinates>
        </Point>
        <matchUri>syriaca.org/place/4097</matchUri>
      </Placemark>
      <Placemark>
        <description>Unknown Point Feature</description>
        <name>Adurbadagan/Ardabil</name>
        <styleUrl>#point1</styleUrl>
        <Point>
          <coordinates>48.2971966000,38.2486751000,0</coordinates>
        </Point>
        <matchUri>syriaca.org/place/798</matchUri>
      </Placemark>
      <Placemark>
        <description>Unknown Point Feature</description>
        <name>Soltaniyeh</name>
        <styleUrl>#point1</styleUrl>
        <Point>
          <coordinates>48.7959266000,36.4339722000,0</coordinates>
        </Point>
        <matchUri>syriaca.org/place/4094</matchUri>
      </Placemark>
      <Placemark>
        <description>Unknown Point Feature</description>
        <name>Dairin (Tarout)</name>
        <styleUrl>#point1</styleUrl>
        <Point>
          <coordinates>50.0588608000,26.5713331000,0</coordinates>
        </Point>
        <matchUri>syriaca.org/place/4150</matchUri>
      </Placemark>
      <Placemark>
        <description>Unknown Point Feature</description>
        <name>Mashmahig/Samahij</name>
        <styleUrl>#point1</styleUrl>
        <Point>
          <coordinates>50.6342268000,26.2821027000,0</coordinates>
        </Point>
        <matchUri>syriaca.org/place/4162</matchUri>
      </Placemark>
      <Placemark>
        <description>Unknown Point Feature</description>
        <name>Hatta/al-Qatif</name>
        <styleUrl>#point1</styleUrl>
        <Point>
          <coordinates>50.0040579000,26.5581479000,0</coordinates>
        </Point>
        <matchUri>syriaca.org/place/4156</matchUri>
      </Placemark>
      <Placemark>
        <description>Unknown Point Feature</description>
        <name>Hagar (al-Battaliyah NE of al-Hufuf?)</name>
        <styleUrl>#point1</styleUrl>
        <Point>
          <coordinates>49.6297073000,25.4328399000,0</coordinates>
        </Point>
        <matchUri>syriaca.org/place/4155</matchUri>
      </Placemark>
      <Placemark>
        <description>Unknown Point Feature</description>
        <name>Mazun (Suhar?)</name>
        <styleUrl>#point1</styleUrl>
        <Point>
          <coordinates>56.7432690000,24.3610932000,0</coordinates>
        </Point>
        <matchUri>syriaca.org/place/4477</matchUri>
        <matchUri>syriaca.org/place/4164</matchUri>
      </Placemark>
      <Placemark>
        <description>Unknown Point Feature</description>
        <name>Daybul (Bhambor?)</name>
        <styleUrl>#point1</styleUrl>
        <Point>
          <coordinates>67.5212860000,24.7513522000,0</coordinates>
        </Point>
        <matchUri>syriaca.org/place/4243</matchUri>
      </Placemark>
      <Placemark>
        <description>Unknown Point Feature</description>
        <name>Paidangaran/Baylaqan</name>
        <styleUrl>#point1</styleUrl>
        <Point>
          <coordinates>47.5052047000,39.8356626000,0</coordinates>
        </Point>
        <matchUri>syriaca.org/place/4067</matchUri>
        <matchUri>syriaca.org/place/4041</matchUri>
      </Placemark>
      <Placemark>
        <description>Unknown Point Feature</description>
        <name>Qabalak</name>
        <styleUrl>#point1</styleUrl>
        <Point>
          <coordinates>47.7081728000,40.8890875000,0</coordinates>
        </Point>
      </Placemark>
      <Placemark>
        <description>Unknown Point Feature</description>
        <name>Sheki (Nukha)</name>
        <styleUrl>#point1</styleUrl>
        <Point>
          <coordinates>47.1969652000,41.2040212000,0</coordinates>
        </Point>
      </Placemark>
      <Placemark>
        <description>Unknown Point Feature</description>
        <name>Gis/Kish</name>
        <styleUrl>#point1</styleUrl>
        <Point>
          <coordinates>47.1930670000,41.2489330000,0</coordinates>
        </Point>
      </Placemark>
      <Placemark>
        <description>Unknown Point Feature</description>
        <name>Gelersen-Gorersen</name>
        <styleUrl>#point1</styleUrl>
        <Point>
          <coordinates>47.2282505000,41.2629690000,0</coordinates>
        </Point>
      </Placemark>
      <Placemark>
        <description>Unknown Point Feature</description>
        <name>Shake</name>
        <styleUrl>#point1</styleUrl>
        <Point>
          <coordinates>47.1663558000,41.2069594000,0</coordinates>
        </Point>
        <matchUri>syriaca.org/place/4090</matchUri>
      </Placemark>
      <Placemark>
        <description>Unknown Point Feature</description>
        <name>Shamakha/Shamakhi</name>
        <styleUrl>#point1</styleUrl>
        <Point>
          <coordinates>48.6436254000,40.6266972000,0</coordinates>
        </Point>
        <matchUri>syriaca.org/place/4091</matchUri>
      </Placemark>
      <Placemark>
        <description>Unknown Point Feature</description>
        <name>Shenna?/Shajarah</name>
        <styleUrl>#point1</styleUrl>
        <Point>
          <coordinates>43.4104156000,35.2136487000,0</coordinates>
        </Point>
        <matchUri>syriaca.org/place/869</matchUri>
      </Placemark>
      <Placemark>
        <description>Unknown Point Feature</description>
        <name>Nifr</name>
        <styleUrl>#point1</styleUrl>
        <Point>
          <coordinates>45.2329445000,32.1289600000,0</coordinates>
        </Point>
        <matchUri>syriaca.org/place/4083</matchUri>
      </Placemark>
      <Placemark>
        <description>Unknown Point Feature</description>
        <name>al-Nahrawan</name>
        <styleUrl>#point1</styleUrl>
        <Point>
          <coordinates>44.5845366000,33.4215201000,0</coordinates>
        </Point>
        <matchUri>syriaca.org/place/1560</matchUri>
      </Placemark>
      <Placemark>
        <description>Unknown Point Feature</description>
        <name>al-Saymarah</name>
        <styleUrl>#point1</styleUrl>
        <Point>
          <coordinates>47.3654938000,33.1305075000,0</coordinates>
        </Point>
        <matchUri>syriaca.org/place/4202</matchUri>
      </Placemark>
      <Placemark>
        <description>Unknown Point Feature</description>
        <name>al-Nil</name>
        <styleUrl>#point1</styleUrl>
        <Point>
          <coordinates>44.8636150000,32.4997726000,0</coordinates>
        </Point>
        <matchUri>syriaca.org/place/4201</matchUri>
      </Placemark>
      <Placemark>
        <description>Unknown Point Feature</description>
        <name>Resh`ayna (Ra`s al-`Ayn)</name>
        <styleUrl>#point1</styleUrl>
        <Point>
          <coordinates>40.0686407000,36.8448042000,0</coordinates>
        </Point>
        <matchUri>syriaca.org/place/172</matchUri>
      </Placemark>
      <Placemark>
        <description>Unknown Point Feature</description>
        <name>Petra</name>
        <styleUrl>#point1</styleUrl>
        <Point>
          <coordinates>35.4419400000,30.3286100000,0</coordinates>
        </Point>
        <matchUri>syriaca.org/place/157</matchUri>
      </Placemark>
      <Placemark>
        <description>Unknown Point Feature</description>
        <name>Siraf</name>
        <styleUrl>#point1</styleUrl>
        <Point>
          <coordinates>52.3360991000,27.6683164000,0</coordinates>
        </Point>
        <matchUri>syriaca.org/place/4176</matchUri>
      </Placemark>
      <Placemark>
        <description>Unknown Point Feature</description>
        <name>Hormuz</name>
        <styleUrl>#point1</styleUrl>
        <Point>
          <coordinates>56.9790459000,27.0819012000,0</coordinates>
        </Point>
        <matchUri>syriaca.org/place/4158</matchUri>
      </Placemark>
      <Placemark>
        <description>Unknown Point Feature</description>
        <name>Rima/Ubullah (approx.)</name>
        <styleUrl>#point1</styleUrl>
        <Point>
          <coordinates>47.8185081000,30.5269270000,0</coordinates>
        </Point>
        <matchUri>syriaca.org/place/4099</matchUri>
        <matchUri>syriaca.org/place/4100</matchUri>
      </Placemark>
      <Placemark>
        <description>Unknown Point Feature</description>
        <name>Circesium</name>
        <styleUrl>#point1</styleUrl>
        <Point>
          <coordinates>40.4295588000,35.1561264000,0</coordinates>
        </Point>
        <matchUri>syriaca.org/place/62</matchUri>
      </Placemark>
      <Placemark>
        <description>Unknown Point Feature</description>
        <name>Hit</name>
        <styleUrl>#point1</styleUrl>
        <Point>
          <coordinates>42.8250504000,33.6429557000,0</coordinates>
        </Point>
        <matchUri>syriaca.org/place/4072</matchUri>
      </Placemark>
      <Placemark>
        <description>Unknown Point Feature</description>
        <name>`Anat</name>
        <styleUrl>#point1</styleUrl>
        <Point>
          <coordinates>41.9667435000,34.4672216000,0</coordinates>
        </Point>
        <matchUri>syriaca.org/place/429</matchUri>
      </Placemark>
      <Placemark>
        <description>Unknown Point Feature</description>
        <name>Haditha</name>
        <styleUrl>#point1</styleUrl>
        <Point>
          <coordinates>42.3861980000,34.1320729000,0</coordinates>
        </Point>
        <matchUri>syriaca.org/place/4071</matchUri>
      </Placemark>
      <Placemark>
        <description>Unknown Point Feature</description>
        <name>Olon Sume</name>
        <styleUrl>#point1</styleUrl>
        <Point>
          <coordinates>110.4854679000,41.9605751000,0</coordinates>
        </Point>
        <matchUri>syriaca.org/place/4390</matchUri>
      </Placemark>
      <Placemark>
        <description>Unknown Point Feature</description>
        <name>Qalat Sem`an</name>
        <styleUrl>#point1</styleUrl>
        <Point>
          <coordinates>36.8441963000,36.3340381000,0</coordinates>
        </Point>
        <matchUri>syriaca.org/place/635</matchUri>
      </Placemark>
      <Placemark>
        <description>Unknown Point Feature</description>
        <name>Qamul (Hami)</name>
        <styleUrl>#point1</styleUrl>
        <Point>
          <coordinates>93.5087156000,42.8179596000,0</coordinates>
        </Point>
        <matchUri>syriaca.org/place/4396</matchUri>
      </Placemark>
      <Placemark>
        <description>Unknown Point Feature</description>
        <name>Qara</name>
        <styleUrl>#point1</styleUrl>
        <Point>
          <coordinates>36.7444825000,34.1567755000,0</coordinates>
        </Point>
        <matchUri>syriaca.org/place/161</matchUri>
      </Placemark>
      <Placemark>
        <description>Unknown Point Feature</description>
        <name>Qartamin (Mor Gabriel) mon.</name>
        <styleUrl>#point1</styleUrl>
        <Point>
          <coordinates>41.5382338000,37.3217450000,0</coordinates>
        </Point>
        <matchUri>syriaca.org/place/226</matchUri>
      </Placemark>
      <Placemark>
        <description>Unknown Point Feature</description>
        <name>Qenneshrin</name>
        <styleUrl>#point1</styleUrl>
        <Point>
          <coordinates>37.0038843000,35.9895353000,0</coordinates>
        </Point>
        <matchUri>syriaca.org/place/230</matchUri>
      </Placemark>
      <Placemark>
        <description>Unknown Point Feature</description>
        <name>Rabban Bar `Edta mon.</name>
        <styleUrl>#point1</styleUrl>
        <Point>
          <coordinates>43.6572003000,36.7329428000,0</coordinates>
        </Point>
        <matchUri>syriaca.org/place/167</matchUri>
      </Placemark>
      <Placemark>
        <description>Unknown Point Feature</description>
        <name>Rabban Hormizd mon.</name>
        <styleUrl>#point1</styleUrl>
        <Point>
          <coordinates>43.1156087000,36.7491105000,0</coordinates>
        </Point>
        <matchUri>syriaca.org/place/168</matchUri>
      </Placemark>
      <Placemark>
        <description>Unknown Point Feature</description>
        <name>Salah (Baristepe)</name>
        <styleUrl>#point1</styleUrl>
        <Point>
          <coordinates>41.3966668000,37.4831679000,0</coordinates>
        </Point>
        <matchUri>syriaca.org/place/2</matchUri>
      </Placemark>
      <Placemark>
        <description>Unknown Point Feature</description>
        <name>Serrin</name>
        <styleUrl>#point1</styleUrl>
        <Point>
          <coordinates>38.2987797000,36.5893871000,0</coordinates>
        </Point>
        <matchUri>syriaca.org/place/655</matchUri>
      </Placemark>
      <Placemark>
        <description>Unknown Point Feature</description>
        <name>Sadad</name>
        <styleUrl>#point1</styleUrl>
        <Point>
          <coordinates>36.9258642000,34.3126383000,0</coordinates>
        </Point>
        <matchUri>syriaca.org/place/276</matchUri>
      </Placemark>
      <Placemark>
        <description>Unknown Point Feature</description>
        <name>Batnae/Serug</name>
        <styleUrl>#point1</styleUrl>
        <Point>
          <coordinates>38.4242105000,36.9753697000,0</coordinates>
        </Point>
        <matchUri>syriaca.org/place/48</matchUri>
      </Placemark>
      <Placemark>
        <description>Unknown Point Feature</description>
        <name>Beth Waziq (Bawazij) (approx.)</name>
        <styleUrl>#point1</styleUrl>
        <Point>
          <coordinates>43.6013460000,35.3714587000,0</coordinates>
        </Point>
        <matchUri>syriaca.org/place/806</matchUri>
      </Placemark>
      <Placemark>
        <description>Unknown Point Feature</description>
        <name>Shahrgard (approx.)</name>
        <styleUrl>#point1</styleUrl>
        <Point>
          <coordinates>44.0793800000,35.7075971000,0</coordinates>
        </Point>
        <matchUri>syriaca.org/place/2370</matchUri>
      </Placemark>
      <Placemark>
        <description>Unknown Point Feature</description>
        <name>Sharfeh mon.</name>
        <styleUrl>#point1</styleUrl>
        <Point>
          <coordinates>35.6682301000,33.9896657000,0</coordinates>
        </Point>
        <matchUri>syriaca.org/place/232</matchUri>
      </Placemark>
      <Placemark>
        <description>Unknown Point Feature</description>
        <name>Sum Huh Burd</name>
        <styleUrl>#point1</styleUrl>
        <Point>
          <coordinates>105.7600594000,46.1606910000,0</coordinates>
        </Point>
        <matchUri>syriaca.org/place/4403</matchUri>
      </Placemark>
      <Placemark>
        <description>Unknown Point Feature</description>
        <name>Sumatar Harabesi</name>
        <styleUrl>#point1</styleUrl>
        <Point>
          <coordinates>39.3380070000,36.9956207000,0</coordinates>
        </Point>
        <matchUri>syriaca.org/place/643</matchUri>
      </Placemark>
      <Placemark>
        <description>Unknown Point Feature</description>
        <name>Dayr Turmanin</name>
        <styleUrl>#point1</styleUrl>
        <Point>
          <coordinates>36.8235058000,36.2417379000,0</coordinates>
        </Point>
      </Placemark>
      <Placemark>
        <description>Unknown Point Feature</description>
        <name>Tell `Ada</name>
        <styleUrl>#point1</styleUrl>
        <Point>
          <coordinates>36.8020213000,36.2517835000,0</coordinates>
        </Point>
        <matchUri>syriaca.org/place/233</matchUri>
      </Placemark>
      <Placemark>
        <description>Unknown Point Feature</description>
        <name>Zaz</name>
        <styleUrl>#point1</styleUrl>
        <Point>
          <coordinates>41.5369785000,37.5132151000,0</coordinates>
        </Point>
        <matchUri>syriaca.org/place/538</matchUri>
      </Placemark>
      <Placemark>
        <description>Unknown Point Feature</description>
        <name>Qasr Ibn Hubayra (approx.)</name>
        <styleUrl>#point1</styleUrl>
        <Point>
          <coordinates>44.3921578000,32.6738983000,0</coordinates>
        </Point>
        <matchUri>syriaca.org/place/4216</matchUri>
      </Placemark>
      <Placemark>
        <description>Unknown Point Feature</description>
        <name>Radhan (Baradan, NW of Badran)</name>
        <styleUrl>#point1</styleUrl>
        <Point>
          <coordinates>44.3666983000,33.5392127000,0</coordinates>
        </Point>
        <matchUri>syriaca.org/place/4045</matchUri>
      </Placemark>
      <Placemark>
        <description>Unknown Point Feature</description>
        <name>Ram-Hormizd</name>
        <styleUrl>#point1</styleUrl>
        <Point>
          <coordinates>49.6062756000,31.2754699000,0</coordinates>
        </Point>
        <matchUri>syriaca.org/place/4218</matchUri>
      </Placemark>
      <Placemark>
        <description>Unknown Point Feature</description>
        <name>Kalyan</name>
        <styleUrl>#point1</styleUrl>
        <Point>
          <coordinates>73.1249356000,19.2425206000,0</coordinates>
        </Point>
        <matchUri>syriaca.org/place/4371</matchUri>
      </Placemark>
      <Placemark>
        <description>Unknown Point Feature</description>
        <name>Chengdu</name>
        <styleUrl>#point1</styleUrl>
        <Point>
          <coordinates>104.0577793000,30.6613194000,0</coordinates>
        </Point>
        <matchUri>syriaca.org/place/4352</matchUri>
      </Placemark>
      <Placemark>
        <description>Unknown Point Feature</description>
        <name>Yunnanfu/Kunming</name>
        <styleUrl>#point1</styleUrl>
        <Point>
          <coordinates>102.7072334000,25.0427012000,0</coordinates>
        </Point>
        <matchUri>syriaca.org/place/4423</matchUri>
      </Placemark>
      <Placemark>
        <description>Unknown Point Feature</description>
        <name>Lin'an/Hangzhou</name>
        <styleUrl>#point1</styleUrl>
        <Point>
          <coordinates>120.1701736000,30.2517274000,0</coordinates>
        </Point>
        <matchUri>syriaca.org/place/4380</matchUri>
      </Placemark>
      <Placemark>
        <description>Unknown Point Feature</description>
        <name>Liaoyang</name>
        <styleUrl>#point1</styleUrl>
        <Point>
          <coordinates>123.1860924000,41.2669690000,0</coordinates>
        </Point>
        <matchUri>syriaca.org/place/4379</matchUri>
      </Placemark>
      <Placemark>
        <description>Unknown Point Feature</description>
        <name>Ganzhou/Zhangye</name>
        <styleUrl>#point1</styleUrl>
        <Point>
          <coordinates>100.4550362000,38.9363126000,0</coordinates>
        </Point>
        <matchUri>syriaca.org/place/4359</matchUri>
      </Placemark>
      <Placemark>
        <description>Unknown Point Feature</description>
        <name>Pegu</name>
        <styleUrl>#point1</styleUrl>
        <Point>
          <coordinates>96.4932632000,17.3298282000,0</coordinates>
        </Point>
        <matchUri>syriaca.org/place/4395</matchUri>
      </Placemark>
      <Placemark>
        <description>Unknown Point Feature</description>
        <name>Dasqarta d'Malka</name>
        <styleUrl>#point1</styleUrl>
        <Point>
          <coordinates>44.9186325000,33.8886575000,0</coordinates>
        </Point>
        <matchUri>syriaca.org/place/4016</matchUri>
      </Placemark>
      <Placemark>
        <description>Unknown Point Feature</description>
        <name>Dhofar</name>
        <styleUrl>#point1</styleUrl>
        <Point>
          <coordinates>54.0969801000,17.0123053000,0</coordinates>
        </Point>
        <matchUri>syriaca.org/place/4152</matchUri>
      </Placemark>
      <Placemark>
        <description>Unknown Point Feature</description>
        <name>Aden</name>
        <styleUrl>#point1</styleUrl>
        <Point>
          <coordinates>45.0490522000,12.7790749000,0</coordinates>
        </Point>
        <matchUri>syriaca.org/place/4143</matchUri>
      </Placemark>
      <Placemark>
        <description>Unknown Point Feature</description>
        <name>Sana`a'</name>
        <styleUrl>#point1</styleUrl>
        <Point>
          <coordinates>44.2154002000,15.3549628000,0</coordinates>
        </Point>
        <matchUri>syriaca.org/place/4175</matchUri>
      </Placemark>
      <Placemark>
        <description>Unknown Point Feature</description>
        <name>Najran</name>
        <styleUrl>#point1</styleUrl>
        <Point>
          <coordinates>44.1814756000,17.4797888000,0</coordinates>
        </Point>
        <matchUri>syriaca.org/place/464</matchUri>
      </Placemark>
      <Placemark>
        <description>Unknown Point Feature</description>
        <name>Aksum</name>
        <styleUrl>#point1</styleUrl>
        <Point>
          <coordinates>38.7196505000,14.1303436000,0</coordinates>
        </Point>
        <matchUri>syriaca.org/place/4146</matchUri>
      </Placemark>
      <Placemark>
        <description>Unknown Point Feature</description>
        <name>Panopolis/Akhmim</name>
        <styleUrl>#point1</styleUrl>
        <Point>
          <coordinates>31.7443728000,26.5617754000,0</coordinates>
        </Point>
        <matchUri>syriaca.org/place/4169</matchUri>
      </Placemark>
      <Placemark>
        <description>Unknown Point Feature</description>
        <name>Nicosia</name>
        <styleUrl>#point1</styleUrl>
        <Point>
          <coordinates>33.3640409000,35.1757903000,0</coordinates>
        </Point>
        <matchUri>syriaca.org/place/4082</matchUri>
      </Placemark>
      <Placemark>
        <description>Unknown Point Feature</description>
        <name>Tiberias</name>
        <styleUrl>#point1</styleUrl>
        <Point>
          <coordinates>35.5452347000,32.7786153000,0</coordinates>
        </Point>
        <matchUri>syriaca.org/place/201</matchUri>
      </Placemark>
      <Placemark>
        <description>Unknown Point Feature</description>
        <name>Gaza</name>
        <styleUrl>#point1</styleUrl>
        <Point>
          <coordinates>34.4469452000,31.5216298000,0</coordinates>
        </Point>
        <matchUri>syriaca.org/place/87</matchUri>
      </Placemark>
      <Placemark>
        <description>Unknown Point Feature</description>
        <name>Sidon</name>
        <styleUrl>#point1</styleUrl>
        <Point>
          <coordinates>35.3699255000,33.5626748000,0</coordinates>
        </Point>
        <matchUri>syriaca.org/place/187</matchUri>
      </Placemark>
      <Placemark>
        <description>Unknown Point Feature</description>
        <name>Byblos</name>
        <styleUrl>#point1</styleUrl>
        <Point>
          <coordinates>35.6455278000,34.1207936000,0</coordinates>
        </Point>
        <matchUri>syriaca.org/place/52</matchUri>
      </Placemark>
      <Placemark>
        <description>Unknown Point Feature</description>
        <name>Arwad</name>
        <styleUrl>#point1</styleUrl>
        <Point>
          <coordinates>35.8575082000,34.8565223000,0</coordinates>
        </Point>
        <matchUri>syriaca.org/place/4062</matchUri>
      </Placemark>
      <Placemark>
        <description>Unknown Point Feature</description>
        <name>Baalbek</name>
        <styleUrl>#point1</styleUrl>
        <Point>
          <coordinates>36.2052083000,34.0072596000,0</coordinates>
        </Point>
        <matchUri>syriaca.org/place/577</matchUri>
      </Placemark>
      <Placemark>
        <description>Unknown Point Feature</description>
        <name>80N 160E</name>
        <styleUrl>#point1</styleUrl>
        <Point>
          <coordinates>160.0000000000,80.0000000000,0</coordinates>
        </Point>
      </Placemark>
      <Placemark>
        <description>Unknown Point Feature</description>
        <name>80S 160E</name>
        <styleUrl>#point1</styleUrl>
        <Point>
          <coordinates>160.0000000000,-80.0000000000,0</coordinates>
        </Point>
      </Placemark>
      <Placemark>
        <description>Unknown Point Feature</description>
        <name>80N 160W</name>
        <styleUrl>#point1</styleUrl>
        <Point>
          <coordinates>-160.0000000000,80.0000000000,0</coordinates>
        </Point>
      </Placemark>
      <Placemark>
        <description>Unknown Point Feature</description>
        <name>80S 160W</name>
        <styleUrl>#point1</styleUrl>
        <Point>
          <coordinates>-160.0000000000,-80.0000000000,0</coordinates>
        </Point>
      </Placemark>
      <Placemark>
        <description>Unknown Point Feature</description>
        <name>Lhasa</name>
        <styleUrl>#point1</styleUrl>
        <Point>
          <coordinates>91.1169577000,29.6577752000,0</coordinates>
        </Point>
        <matchUri>syriaca.org/place/4378</matchUri>
      </Placemark>
      <Placemark>
        <description>Unknown Point Feature</description>
        <name>Delhi</name>
        <styleUrl>#point1</styleUrl>
        <Point>
          <coordinates>77.2409678000,28.6560225000,0</coordinates>
        </Point>
        <matchUri>syriaca.org/place/4354</matchUri>
      </Placemark>
      <Placemark>
        <description>Unknown Point Feature</description>
        <name>Patna</name>
        <styleUrl>#point1</styleUrl>
        <Point>
          <coordinates>85.1291943000,25.6179044000,0</coordinates>
        </Point>
        <matchUri>syriaca.org/place/4394</matchUri>
      </Placemark>
      <Placemark>
        <description>Unknown Point Feature</description>
        <name>Ujjain</name>
        <styleUrl>#point1</styleUrl>
        <Point>
          <coordinates>75.7711709000,23.1880420000,0</coordinates>
        </Point>
        <matchUri>syriaca.org/place/4413</matchUri>
      </Placemark>
      <Placemark>
        <description>Unknown Point Feature</description>
        <name>Lahore</name>
        <styleUrl>#point1</styleUrl>
        <Point>
          <coordinates>74.3153858000,31.5863591000,0</coordinates>
        </Point>
        <matchUri>syriaca.org/place/4304</matchUri>
      </Placemark>
      <Placemark>
        <description>Unknown Point Feature</description>
        <name>Bombay/Mumbai</name>
        <styleUrl>#point1</styleUrl>
        <Point>
          <coordinates>72.8324890000,18.9387634000,0</coordinates>
        </Point>
        <matchUri>syriaca.org/place/4344</matchUri>
      </Placemark>